[
  {
    "province": "广东省",
    "city": "广东省",
    "latitude": 24.8037768,
    "longitude": 113.9262271,
    "name": "Shenzhen Data Center",
    "source": "广东省-guangdong-sheng",
    "coordinates": "24.8037768,113.9262271",
    "index": 1,
    "crawl_time": "2025-06-20 16:10:08"
  },
  {
    "province": "广东省",
    "city": "广东省",
    "latitude": 21.240597,
    "longitude": 113.533343,
    "name": "Shenzhen Information Hub Data Center",
    "source": "广东省-guangdong-sheng",
    "coordinates": "21.240597,113.533343",
    "index": 2,
    "crawl_time": "2025-06-20 16:10:08"
  },
  {
    "province": "广东省",
    "city": "广东省",
    "latitude": 22.592634,
    "longitude": 113.44306,
    "name": "Guangzhou Data Center",
    "source": "广东省-guangdong-sheng",
    "coordinates": "22.592634,113.44306",
    "index": 3,
    "crawl_time": "2025-06-20 16:10:08"
  },
  {
    "province": "广东省",
    "city": "广东省",
    "latitude": 23.193611,
    "longitude": 113.751799,
    "name": "Guangzhou Cloud-computing Data Center",
    "source": "广东省-guangdong-sheng",
    "coordinates": "23.193611,113.751799",
    "index": 4,
    "crawl_time": "2025-06-20 16:10:08"
  },
  {
    "province": "广东省",
    "city": "广东省",
    "latitude": 23.697898,
    "longitude": 113.1948363,
    "name": "Guangzhou Huadiwan IDC Data Center",
    "source": "广东省-guangdong-sheng",
    "coordinates": "23.697898,113.1948363",
    "index": 5,
    "crawl_time": "2025-06-20 16:10:08"
  },
  {
    "province": "广东省",
    "city": "广东省",
    "latitude": 23.2099097,
    "longitude": 113.121435,
    "name": "Shenzhen Fuyong IDC Data Center",
    "source": "广东省-guangdong-sheng",
    "coordinates": "23.2099097,113.121435",
    "index": 6,
    "crawl_time": "2025-06-20 16:10:08"
  },
  {
    "province": "广东省",
    "city": "广东省",
    "latitude": 22.9219358,
    "longitude": 113.9397108,
    "name": "Foshan Shunde IDC Data Center",
    "source": "广东省-guangdong-sheng",
    "coordinates": "22.9219358,113.9397108",
    "index": 7,
    "crawl_time": "2025-06-20 16:10:08"
  },
  {
    "province": "广东省",
    "city": "广东省",
    "latitude": 22.3803187,
    "longitude": 113.2346346,
    "name": "Shenzhen Runxun Qianhai Data Center",
    "source": "广东省-guangdong-sheng",
    "coordinates": "22.3803187,113.2346346",
    "index": 8,
    "crawl_time": "2025-06-20 16:10:08"
  },
  {
    "province": "广东省",
    "city": "广东省",
    "latitude": 22.282733,
    "longitude": 113.7972466,
    "name": "Foshan Kepler Data Center",
    "source": "广东省-guangdong-sheng",
    "coordinates": "22.282733,113.7972466",
    "index": 9,
    "crawl_time": "2025-06-20 16:10:08"
  },
  {
    "province": "广东省",
    "city": "广东省",
    "latitude": 23.1570165,
    "longitude": 113.293359,
    "name": "GDS SZ4 Data Center",
    "source": "广东省-guangdong-sheng",
    "coordinates": "23.1570165,113.293359",
    "index": 10,
    "crawl_time": "2025-06-20 16:10:08"
  },
  {
    "province": "广东省",
    "city": "广东省",
    "latitude": 23.1317099,
    "longitude": 113.884019,
    "name": "Guangdong Nanshayungu Data Center",
    "source": "广东省-guangdong-sheng",
    "coordinates": "23.1317099,113.884019",
    "index": 11,
    "crawl_time": "2025-06-20 16:10:08"
  },
  {
    "province": "广东省",
    "city": "广东省",
    "latitude": 22.5352098,
    "longitude": 113.0562404,
    "name": "Jiangmen Data Center",
    "source": "广东省-guangdong-sheng",
    "coordinates": "22.5352098,113.0562404",
    "index": 12,
    "crawl_time": "2025-06-20 16:10:08"
  },
  {
    "province": "广东省",
    "city": "广东省",
    "latitude": 23.0728674,
    "longitude": 113.564863,
    "name": "CAN1 Guandong Sheng Data Center",
    "source": "广东省-guangdong-sheng",
    "coordinates": "23.0728674,113.564863",
    "index": 13,
    "crawl_time": "2025-06-20 16:10:08"
  },
  {
    "province": "广东省",
    "city": "广东省",
    "latitude": 22.721764,
    "longitude": 113.5336523,
    "name": "Dongguan Dalang IDC Data Center",
    "source": "广东省-guangdong-sheng",
    "coordinates": "22.721764,113.5336523",
    "index": 14,
    "crawl_time": "2025-06-20 16:10:08"
  },
  {
    "province": "广东省",
    "city": "广东省",
    "latitude": 22.517585,
    "longitude": 113.3418343,
    "name": "Guangdong Zhuhai IDC Data Center",
    "source": "广东省-guangdong-sheng",
    "coordinates": "22.517585,113.3418343",
    "index": 15,
    "crawl_time": "2025-06-20 16:10:08"
  },
  {
    "province": "广东省",
    "city": "广东省",
    "latitude": 23.0362321,
    "longitude": 113.8983482,
    "name": "Zhuhai Xiangzhou IDC Data Center",
    "source": "广东省-guangdong-sheng",
    "coordinates": "23.0362321,113.8983482",
    "index": 16,
    "crawl_time": "2025-06-20 16:10:08"
  },
  {
    "province": "广东省",
    "city": "广东省",
    "latitude": 22.5440256,
    "longitude": 113.4597533,
    "name": "Qingyuan Data Integration Data Center",
    "source": "广东省-guangdong-sheng",
    "coordinates": "22.5440256,113.4597533",
    "index": 17,
    "crawl_time": "2025-06-20 16:10:08"
  },
  {
    "province": "广东省",
    "city": "广东省",
    "latitude": 23.106401,
    "longitude": 114.5152091,
    "name": "Guangdong Keyun Data Center",
    "source": "广东省-guangdong-sheng",
    "coordinates": "23.106401,114.5152091",
    "index": 18,
    "crawl_time": "2025-06-20 16:10:08"
  },
  {
    "province": "广东省",
    "city": "广东省",
    "latitude": 24.31049,
    "longitude": 113.5883864,
    "name": "Guangzhou Tianhe Aircraft Building IDC Data Center",
    "source": "广东省-guangdong-sheng",
    "coordinates": "24.31049,113.5883864",
    "index": 19,
    "crawl_time": "2025-06-20 16:10:08"
  },
  {
    "province": "广东省",
    "city": "广东省",
    "latitude": 23.021478,
    "longitude": 113.39277,
    "name": "Shenzhen Gaoke Building IDC Data Center",
    "source": "广东省-guangdong-sheng",
    "coordinates": "23.021478,113.39277",
    "index": 20,
    "crawl_time": "2025-06-20 16:10:08"
  },
  {
    "province": "广东省",
    "city": "广东省",
    "latitude": 22.5334577,
    "longitude": 113.459749,
    "name": "Changzhou West IDC Data Center",
    "source": "广东省-guangdong-sheng",
    "coordinates": "22.5334577,113.459749",
    "index": 21,
    "crawl_time": "2025-06-20 16:10:08"
  },
  {
    "province": "广东省",
    "city": "广东省",
    "latitude": 22.9306835,
    "longitude": 113.51667,
    "name": "Guangdong Telecom Building IDC Data Center",
    "source": "广东省-guangdong-sheng",
    "coordinates": "22.9306835,113.51667",
    "index": 22,
    "crawl_time": "2025-06-20 16:10:08"
  },
  {
    "province": "广东省",
    "city": "广东省",
    "latitude": 23.020673,
    "longitude": 114.1213842,
    "name": "Guangzhou Data Center (GZ1)",
    "source": "广东省-guangdong-sheng",
    "coordinates": "23.020673,114.1213842",
    "index": 23,
    "crawl_time": "2025-06-20 16:10:08"
  },
  {
    "province": "广东省",
    "city": "广东省",
    "latitude": 21.6152889,
    "longitude": 110.4071963,
    "name": "Guangzhou Data Center (GZ4)",
    "source": "广东省-guangdong-sheng",
    "coordinates": "21.6152889,110.4071963",
    "index": 24,
    "crawl_time": "2025-06-20 16:10:08"
  },
  {
    "province": "广东省",
    "city": "广东省",
    "latitude": 22.541752,
    "longitude": 110.9199292,
    "name": "Guangdong Huizhou Longhu Data Center",
    "source": "广东省-guangdong-sheng",
    "coordinates": "22.541752,110.9199292",
    "index": 25,
    "crawl_time": "2025-06-20 16:10:08"
  },
  {
    "province": "广东省",
    "city": "广东省",
    "latitude": 22.6878046,
    "longitude": 112.0331658,
    "name": "Yunfu IDC Data Center",
    "source": "广东省-guangdong-sheng",
    "coordinates": "22.6878046,112.0331658",
    "index": 26,
    "crawl_time": "2025-06-20 16:10:08"
  },
  {
    "province": "广东省",
    "city": "广东省",
    "latitude": 22.80524,
    "longitude": 113.078404,
    "name": "CAN8 Guangzhou Data Center",
    "source": "广东省-guangdong-sheng",
    "coordinates": "22.80524,113.078404",
    "index": 27,
    "crawl_time": "2025-06-20 16:10:08"
  },
  {
    "province": "广东省",
    "city": "广东省",
    "latitude": 22.555259,
    "longitude": 113.36899,
    "name": "Zhanjiang Tunxi Data Center",
    "source": "广东省-guangdong-sheng",
    "coordinates": "22.555259,113.36899",
    "index": 28,
    "crawl_time": "2025-06-20 16:10:08"
  },
  {
    "province": "广东省",
    "city": "广东省",
    "latitude": 22.7035446,
    "longitude": 113.5426834,
    "name": "Shaoguan Xinhua North IDC Data Center",
    "source": "广东省-guangdong-sheng",
    "coordinates": "22.7035446,113.5426834",
    "index": 29,
    "crawl_time": "2025-06-20 16:10:08"
  },
  {
    "province": "广东省",
    "city": "广东省",
    "latitude": 23.0811918,
    "longitude": 113.9192643,
    "name": "Meizhou Telecom Hub Building Data Center",
    "source": "广东省-guangdong-sheng",
    "coordinates": "23.0811918,113.9192643",
    "index": 30,
    "crawl_time": "2025-06-20 16:10:08"
  },
  {
    "province": "广东省",
    "city": "广东省",
    "latitude": 23.0381908,
    "longitude": 113.062692,
    "name": "Foshan Century Interconnect IDC Data Center",
    "source": "广东省-guangdong-sheng",
    "coordinates": "23.0381908,113.062692",
    "index": 31,
    "crawl_time": "2025-06-20 16:10:08"
  },
  {
    "province": "广东省",
    "city": "广东省",
    "latitude": 22.7221124,
    "longitude": 113.5393183,
    "name": "Guangzhou Data Center (GZ2)",
    "source": "广东省-guangdong-sheng",
    "coordinates": "22.7221124,113.5393183",
    "index": 32,
    "crawl_time": "2025-06-20 16:10:08"
  },
  {
    "province": "广东省",
    "city": "广东省",
    "latitude": 23.1417341,
    "longitude": 113.2841097,
    "name": "Zhongshan Huoju Cloud Data Center",
    "source": "广东省-guangdong-sheng",
    "coordinates": "23.1417341,113.2841097",
    "index": 33,
    "crawl_time": "2025-06-20 16:10:08"
  },
  {
    "province": "广东省",
    "city": "广东省",
    "latitude": 22.5070263,
    "longitude": 113.26627,
    "name": "Dongguan City IDC Data Center",
    "source": "广东省-guangdong-sheng",
    "coordinates": "22.5070263,113.26627",
    "index": 34,
    "crawl_time": "2025-06-20 16:10:08"
  },
  {
    "province": "广东省",
    "city": "广东省",
    "latitude": 23.1244725,
    "longitude": 114.0553976,
    "name": "Guangzhou Accelerator Data Center",
    "source": "广东省-guangdong-sheng",
    "coordinates": "23.1244725,114.0553976",
    "index": 35,
    "crawl_time": "2025-06-20 16:10:08"
  },
  {
    "province": "广东省",
    "city": "广东省",
    "latitude": 23.1498797,
    "longitude": 113.5002328,
    "name": "Shenzhen Luohu East Gate IDC Data Center",
    "source": "广东省-guangdong-sheng",
    "coordinates": "23.1498797,113.5002328",
    "index": 36,
    "crawl_time": "2025-06-20 16:10:08"
  },
  {
    "province": "广东省",
    "city": "广东省",
    "latitude": 23.1445396,
    "longitude": 114.2466493,
    "name": "FUO1 Guangdong Sheng Data Center",
    "source": "广东省-guangdong-sheng",
    "coordinates": "23.1445396,114.2466493",
    "index": 37,
    "crawl_time": "2025-06-20 16:10:08"
  },
  {
    "province": "广东省",
    "city": "广东省",
    "latitude": 23.14892,
    "longitude": 116.116695,
    "name": "Maoming Mountain IDC Data Center",
    "source": "广东省-guangdong-sheng",
    "coordinates": "23.14892,116.116695",
    "index": 38,
    "crawl_time": "2025-06-20 16:10:08"
  },
  {
    "province": "广东省",
    "city": "广东省",
    "latitude": 23.16904,
    "longitude": 113.2829446,
    "name": "BDx Data Centers",
    "source": "广东省-guangdong-sheng",
    "coordinates": "23.16904,113.2829446",
    "index": 39,
    "crawl_time": "2025-06-20 16:10:08"
  }
]