[
  {
    "province": "上海市",
    "city": "上海市",
    "latitude": 31.31723,
    "longitude": 121.623306,
    "name": "SH6 Shanghai Data Center",
    "source": "上海-shanghai",
    "page": 1,
    "coordinates": "31.31723,121.623306",
    "index": 1,
    "crawl_time": "2025-06-28 21:19:30",
    "provider": "Equinix",
    "address": "898 Xinling Road, Pudong, Shanghai, China"
  },
  {
    "province": "上海市",
    "city": "上海市",
    "latitude": 31.2767859,
    "longitude": 121.541634,
    "name": "SH5 Yangpu District Data Center",
    "source": "上海-shanghai",
    "page": 1,
    "coordinates": "31.2767859,121.541634",
    "index": 2,
    "crawl_time": "2025-06-28 21:19:30",
    "provider": "Equinix",
    "address": "619 Longchang Road, Yangpu, Shanghai, China"
  },
  {
    "province": "上海市",
    "city": "上海市",
    "latitude": 31.246309,
    "longitude": 121.620621,
    "name": "SH3 Pudong New Area Data Center",
    "source": "上海-shanghai",
    "page": 1,
    "coordinates": "31.246309,121.620621",
    "index": 3,
    "crawl_time": "2025-06-28 21:19:30",
    "provider": "Equinix",
    "address": "700 Jinyu Road, Pudong, Shanghai, China"
  },
  {
    "province": "上海市",
    "city": "上海市",
    "latitude": 31.230416,
    "longitude": 121.473701,
    "name": "China East-Shanghai",
    "source": "上海-shanghai",
    "page": 1,
    "coordinates": "31.230416,121.473701",
    "index": 4,
    "crawl_time": "2025-06-28 21:19:30",
    "provider": "Microsoft Azure",
    "address": "Shanghai, China"
  },
  {
    "province": "上海市",
    "city": "上海市",
    "latitude": 31.1837487,
    "longitude": 121.4371364,
    "name": "Shanghai Telecom Caoxi Data Center",
    "source": "上海-shanghai",
    "page": 1,
    "coordinates": "31.1837487,121.4371364",
    "index": 5,
    "crawl_time": "2025-06-28 21:19:30",
    "provider": "China Telecom",
    "address": "China Telecom Co., Ltd. Shanghai Southern District Telecommunication Bureau Xujiahui Branch, Wan Ti Guan, Xuhui Qu, Shanghai Shi, China"
  },
  {
    "province": "上海市",
    "city": "上海市",
    "latitude": 31.320884,
    "longitude": 121.606972,
    "name": "GDS SH3, SH4 Data Center",
    "source": "上海-shanghai",
    "page": 1,
    "coordinates": "31.320884,121.606972",
    "index": 6,
    "crawl_time": "2025-06-28 21:19:30",
    "provider": "China Telecom",
    "address": "Shang Hai Shi Gong An Ju Wai Gao Qiao Bao Shui Qu Gong An Chu, 3U Building (Huajing Road), Huajing Road, Pudong Xinqu, Shanghai, China"
  },
  {
    "province": "上海市",
    "city": "上海市",
    "latitude": 31.221517,
    "longitude": 121.544379,
    "name": "Information Park Data Center",
    "source": "上海-shanghai",
    "page": 1,
    "coordinates": "31.221517,121.544379",
    "index": 7,
    "crawl_time": "2025-06-28 21:19:30",
    "provider": "China Telecom",
    "address": "Pudong, Shanghai Shi, China"
  },
  {
    "province": "上海市",
    "city": "上海市",
    "latitude": 31.276205,
    "longitude": 121.541897,
    "name": "SHA5 Shanghai Data Center",
    "source": "上海-shanghai",
    "page": 1,
    "coordinates": "31.276205,121.541897",
    "index": 8,
    "crawl_time": "2025-06-28 21:19:30",
    "provider": "Zenlayer",
    "address": "619 Longchang Road, Yangpu District, Shanghai, China, 200090"
  },
  {
    "province": "上海市",
    "city": "上海市",
    "latitude": 31.344898,
    "longitude": 121.451176,
    "name": "Shanghai Hulan IDC Data Center",
    "source": "上海-shanghai",
    "page": 1,
    "coordinates": "31.344898,121.451176",
    "index": 9,
    "crawl_time": "2025-06-28 21:19:30",
    "provider": "China Telecom",
    "address": "Shang Hai Zhong Wu Shi Ye You Xian Gong Si, Shanghai Xinguang Communication Equipment Plant, Hulan Road, Baoshan Qu, Shanghai, China"
  },
  {
    "province": "上海市",
    "city": "上海市",
    "latitude": 31.2341239,
    "longitude": 121.509968,
    "name": "Shanghai Hotline Information Building Data Center",
    "source": "上海-shanghai",
    "page": 1,
    "coordinates": "31.2341239,121.509968",
    "index": 10,
    "crawl_time": "2025-06-28 21:19:30",
    "provider": "China Telecom",
    "address": "21st Century Tower, Lu Jia Zui, Pudong Xinqu, Shanghai Shi, China"
  },
  {
    "province": "上海市",
    "city": "上海市",
    "latitude": 31.214146,
    "longitude": 121.637741,
    "name": "SH1 Pudong New Area Data Center",
    "source": "上海-shanghai",
    "page": 1,
    "coordinates": "31.214146,121.637741",
    "index": 11,
    "crawl_time": "2025-06-28 21:19:30",
    "provider": "Equinix",
    "address": "400 Fangchun Road, Pudong, Shanghai, China"
  },
  {
    "province": "上海市",
    "city": "上海市",
    "latitude": 31.266133,
    "longitude": 121.611248,
    "name": "Shanghai Jinqiao Data Center",
    "source": "上海-shanghai",
    "page": 1,
    "coordinates": "31.266133,121.611248",
    "index": 12,
    "crawl_time": "2025-06-28 21:19:30",
    "provider": "Telehouse",
    "address": "Jinqiao, Pudong, Shanghai, China"
  },
  {
    "province": "上海市",
    "city": "上海市",
    "latitude": 31.24631,
    "longitude": 121.620243,
    "name": "SH2 Data Center",
    "source": "上海-shanghai",
    "page": 1,
    "coordinates": "31.24631,121.620243",
    "index": 13,
    "crawl_time": "2025-06-28 21:19:30",
    "provider": "China Telecom",
    "address": "Qianzhouyuan, Pudong Xinqu, Shanghai Shi, China"
  },
  {
    "province": "上海市",
    "city": "上海市",
    "latitude": 31.3138344,
    "longitude": 121.4411019,
    "name": "SHA2 Shanghai Data Center",
    "source": "上海-shanghai",
    "page": 1,
    "coordinates": "31.3138344,121.4411019",
    "index": 14,
    "crawl_time": "2025-06-28 21:19:30",
    "provider": "Zenlayer",
    "address": "Zhabei, Shanghai, China, 200443"
  },
  {
    "province": "上海市",
    "city": "上海市",
    "latitude": 31.22841,
    "longitude": 121.60208,
    "name": "SHA3 Shanghai Data Center",
    "source": "上海-shanghai",
    "page": 1,
    "coordinates": "31.22841,121.60208",
    "index": 15,
    "crawl_time": "2025-06-28 21:19:30",
    "provider": "Rackspace",
    "address": "China, Shanghai, Pudong, 张家浜"
  },
  {
    "province": "上海市",
    "city": "上海市",
    "latitude": 31.0699605,
    "longitude": 121.7495334,
    "name": "Nanhui IDC Data Center",
    "source": "上海-shanghai",
    "page": 1,
    "coordinates": "31.0699605,121.7495334",
    "index": 16,
    "crawl_time": "2025-06-28 21:19:30",
    "provider": "China Telecom",
    "address": "China, Shanghai Shi, Pudong, 城西路3号"
  },
  {
    "province": "上海市",
    "city": "上海市",
    "latitude": 31.2273498,
    "longitude": 121.4479303,
    "name": "Shanghai Telecom Guoli Data Center",
    "source": "上海-shanghai",
    "page": 1,
    "coordinates": "31.2273498,121.4479303",
    "index": 17,
    "crawl_time": "2025-06-28 21:19:30",
    "provider": "China Telecom",
    "address": "China Telecom Shanghai Company Long-Distance Wuxianbu Market Tuozhanchu, Guoli Mansion, Beijing West Road, Jingan Qu, Shanghai Shi, China"
  },
  {
    "province": "上海市",
    "city": "上海市",
    "latitude": 31.218747,
    "longitude": 121.504401,
    "name": "Shanghai East Gate IDC Data Center",
    "source": "上海-shanghai",
    "page": 1,
    "coordinates": "31.218747,121.504401",
    "index": 18,
    "crawl_time": "2025-06-28 21:19:30",
    "provider": "China Telecom",
    "address": "Shang Hai Tong Xin Guan Li Ju Zhao Biao Tou Biao Guan Li Ban Gong Shi, Shanghai Tongxin Administration Bureau Tendering and Bidding Management Office, Zhongshan South Road, Huangpu Qu, Shanghai, China"
  },
  {
    "province": "上海市",
    "city": "上海市",
    "latitude": 31.157136,
    "longitude": 121.375543,
    "name": "Shanghai Changxin Caobao Road Data Center",
    "source": "上海-shanghai",
    "page": 1,
    "coordinates": "31.157136,121.375543",
    "index": 19,
    "crawl_time": "2025-06-28 21:19:30",
    "provider": "China Telecom",
    "address": "Shanghai Jingyi Cable Communication Design Institute, Caobao Road, Minhang Qu, Shanghai, China"
  },
  {
    "province": "上海市",
    "city": "上海市",
    "latitude": 31.238498,
    "longitude": 121.501923,
    "name": "XIY2 Xi'an Data Center",
    "source": "上海-shanghai",
    "page": 1,
    "coordinates": "31.238498,121.501923",
    "index": 20,
    "crawl_time": "2025-06-28 21:19:30",
    "provider": "Zenlayer",
    "address": "55 Shi Ji Da Dao, Lujiazui, Pudong, Shanghai, China"
  },
  {
    "province": "上海市",
    "city": "上海市",
    "latitude": 31.375869,
    "longitude": 121.265374,
    "name": "Shanghai Xingshun Data Center",
    "source": "上海-shanghai",
    "page": 1,
    "coordinates": "31.375869,121.265374",
    "index": 21,
    "crawl_time": "2025-06-28 21:19:30",
    "provider": "China Telecom",
    "address": "Jiading, Shanghai, China"
  },
  {
    "province": "上海市",
    "city": "上海市",
    "latitude": 31.3389251,
    "longitude": 121.4370917,
    "name": "Shanghai Jiyun IDC Data Center",
    "source": "上海-shanghai",
    "page": 1,
    "coordinates": "31.3389251,121.4370917",
    "index": 22,
    "crawl_time": "2025-06-28 21:19:30",
    "provider": "China Telecom",
    "address": "Volvo Cars China Training Center, Baoshan Qu, Shanghai Shi, China"
  },
  {
    "province": "上海市",
    "city": "上海市",
    "latitude": 30.8556073,
    "longitude": 121.0881835,
    "name": "Shanghai Jianan Data Center",
    "source": "上海-shanghai",
    "page": 1,
    "coordinates": "30.8556073,121.0881835",
    "index": 23,
    "crawl_time": "2025-06-28 21:19:30",
    "provider": "China Telecom",
    "address": "55 Jian'an Rd, Jinshan Qu, Shanghai Shi, China, 314211"
  },
  {
    "province": "上海市",
    "city": "上海市",
    "latitude": 31.2243427,
    "longitude": 121.5317699,
    "name": "Shanghai Quanhua IDC Data Center",
    "source": "上海-shanghai",
    "page": 1,
    "coordinates": "31.2243427,121.5317699",
    "index": 24,
    "crawl_time": "2025-06-28 21:19:30",
    "provider": "China Telecom",
    "address": "Pan Duo La Cheng Shi Hang Dong Ka Fei Dian, China Information Technology Center, Fushan Road, Pudong Xinqu, Shanghai, China"
  },
  {
    "province": "上海市",
    "city": "上海市",
    "latitude": 31.3445366,
    "longitude": 121.4505657,
    "name": "SHA3 Shanghai Data Center",
    "source": "上海-shanghai",
    "page": 1,
    "coordinates": "31.3445366,121.4505657",
    "index": 25,
    "crawl_time": "2025-06-28 21:19:30",
    "provider": "Zenlayer",
    "address": "534 Hulan Rd, Baoshan, Shanghai, China"
  },
  {
    "province": "上海市",
    "city": "上海市",
    "latitude": 31.1781316,
    "longitude": 121.5141392,
    "name": "Shanghai Yunlian IDC Data Center",
    "source": "上海-shanghai",
    "page": 1,
    "coordinates": "31.1781316,121.5141392",
    "index": 26,
    "crawl_time": "2025-06-28 21:19:30",
    "provider": "China Telecom",
    "address": "Wuming Shengjian (Changli East Road Branch), Pudong Xinqu, Shanghai Shi, China"
  },
  {
    "province": "上海市",
    "city": "上海市",
    "latitude": 31.2355377,
    "longitude": 121.5106818,
    "name": "Shanghai Lujiazui IDC Data Center",
    "source": "上海-shanghai",
    "page": 1,
    "coordinates": "31.2355377,121.5106818",
    "index": 27,
    "crawl_time": "2025-06-28 21:19:30",
    "provider": "China Telecom",
    "address": "Shanghai Information Tower, Lu Jia Zui, Pudong Xinqu, Shanghai Shi, China"
  },
  {
    "province": "上海市",
    "city": "上海市",
    "latitude": 31.1835211,
    "longitude": 121.5365225,
    "name": "Shanghai Beiai IDC Data Center",
    "source": "上海-shanghai",
    "page": 1,
    "coordinates": "31.1835211,121.5365225",
    "index": 28,
    "crawl_time": "2025-06-28 21:19:30",
    "provider": "China Telecom",
    "address": "China Telecom, Surfing Mobile Photo Stores (Xianan Road), Bei'ai Road, Pudong Xinqu, Shanghai Shi, China"
  },
  {
    "province": "上海市",
    "city": "上海市",
    "latitude": 31.294949,
    "longitude": 121.438011,
    "name": "Shanghai North IDC Data Center",
    "source": "上海-shanghai",
    "page": 1,
    "coordinates": "31.294949,121.438011",
    "index": 29,
    "crawl_time": "2025-06-28 21:19:30",
    "provider": "China Telecom",
    "address": "KTB Bearing （Shanghai） Co., Ltd., Jiangchang 3rd Road, Jingan Qu, Shanghai Shi, China"
  },
  {
    "province": "上海市",
    "city": "上海市",
    "latitude": 31.266551,
    "longitude": 121.488522,
    "name": "Shanghai Ouyang Data Center",
    "source": "上海-shanghai",
    "page": 1,
    "coordinates": "31.266551,121.488522",
    "index": 30,
    "crawl_time": "2025-06-28 21:19:30",
    "provider": "China Telecom",
    "address": "Yi Shu Jia Mei Shu Gong Zuo Shi, Franchaise Chain Originality Park Building 1 Block A, Ouyang Road, Hongkou Qu, Shanghai, China"
  },
  {
    "province": "上海市",
    "city": "上海市",
    "latitude": 31.3364826,
    "longitude": 121.6053767,
    "name": "Shanghai Waigaoqiao Data Center",
    "source": "上海-shanghai",
    "page": 1,
    "coordinates": "31.3364826,121.6053767",
    "index": 31,
    "crawl_time": "2025-06-28 21:19:30",
    "provider": "China Telecom",
    "address": "Shanghai Lipu Industries Corporation, 泰谷路 Pudong Xinqu, Shanghai Shi, China"
  },
  {
    "province": "上海市",
    "city": "上海市",
    "latitude": 31.24984,
    "longitude": 121.395555,
    "name": "Shanghai Zhenru IDC Data Center",
    "source": "上海-shanghai",
    "page": 1,
    "coordinates": "31.24984,121.395555",
    "index": 32,
    "crawl_time": "2025-06-28 21:19:30",
    "provider": "China Telecom",
    "address": "Putuo, Shanghai, China"
  },
  {
    "province": "上海市",
    "city": "上海市",
    "latitude": 31.165952,
    "longitude": 121.406291,
    "name": "Shanghai Guilin IDC Data Center",
    "source": "上海-shanghai",
    "page": 1,
    "coordinates": "31.165952,121.406291",
    "index": 33,
    "crawl_time": "2025-06-28 21:19:30",
    "provider": "China Telecom",
    "address": "Inventec Appliances （Shanghai） Electronics Co.,Ltd., Guiqing Road, Xuhui Qu, Shanghai Shi, China"
  },
  {
    "province": "上海市",
    "city": "上海市",
    "latitude": 31.248951,
    "longitude": 121.4830631,
    "name": "Shanghai Haining Data Center",
    "source": "上海-shanghai",
    "page": 1,
    "coordinates": "31.248951,121.4830631",
    "index": 34,
    "crawl_time": "2025-06-28 21:19:30",
    "provider": "China Telecom",
    "address": "Huawei (Jiangxi North Road), Hai Ning Lu, Hongkou Qu, Shanghai Shi, China"
  },
  {
    "province": "上海市",
    "city": "上海市",
    "latitude": 31.2160139,
    "longitude": 121.6326719,
    "name": "Shanghai Zhangdong IDC Data Center",
    "source": "上海-shanghai",
    "page": 1,
    "coordinates": "31.2160139,121.6326719",
    "index": 35,
    "crawl_time": "2025-06-28 21:19:30",
    "provider": "China Telecom",
    "address": "432 Jinqiu Rd, Pudong Xinqu, Shanghai Shi, China, 201205"
  }
]