[
  {
    "latitude": 31.230416,
    "longitude": 121.473701,
    "name": "上海数据中心_1",
    "source": "page_1",
    "district": "黄浦区",
    "crawl_time": "2025-06-20 17:23:19",
    "index": 1
  },
  {
    "latitude": 31.31723,
    "longitude": 121.623306,
    "name": "上海数据中心_2",
    "source": "page_1",
    "district": "浦东新区",
    "crawl_time": "2025-06-20 17:23:19",
    "index": 2
  },
  {
    "latitude": 31.2767859,
    "longitude": 121.541634,
    "name": "上海数据中心_3",
    "source": "page_1",
    "district": "杨浦区",
    "crawl_time": "2025-06-20 17:23:19",
    "index": 3
  },
  {
    "latitude": 31.246309,
    "longitude": 121.620621,
    "name": "上海数据中心_4",
    "source": "page_1",
    "district": "浦东新区",
    "crawl_time": "2025-06-20 17:23:19",
    "index": 4
  },
  {
    "latitude": 31.1837487,
    "longitude": 121.4371364,
    "name": "上海数据中心_5",
    "source": "page_1",
    "district": "徐汇区",
    "crawl_time": "2025-06-20 17:23:19",
    "index": 5
  },
  {
    "latitude": 31.320884,
    "longitude": 121.606972,
    "name": "上海数据中心_6",
    "source": "page_1",
    "district": "浦东新区",
    "crawl_time": "2025-06-20 17:23:19",
    "index": 6
  },
  {
    "latitude": 31.221517,
    "longitude": 121.544379,
    "name": "上海数据中心_7",
    "source": "page_1",
    "district": "浦东新区",
    "crawl_time": "2025-06-20 17:23:19",
    "index": 7
  },
  {
    "latitude": 31.276205,
    "longitude": 121.541897,
    "name": "上海数据中心_8",
    "source": "page_1",
    "district": "杨浦区",
    "crawl_time": "2025-06-20 17:23:19",
    "index": 8
  },
  {
    "latitude": 31.344898,
    "longitude": 121.451176,
    "name": "上海数据中心_9",
    "source": "page_1",
    "district": "宝山区",
    "crawl_time": "2025-06-20 17:23:19",
    "index": 9
  },
  {
    "latitude": 31.2341239,
    "longitude": 121.509968,
    "name": "上海数据中心_10",
    "source": "page_1",
    "district": "黄浦区",
    "crawl_time": "2025-06-20 17:23:19",
    "index": 10
  },
  {
    "latitude": 31.214146,
    "longitude": 121.637741,
    "name": "上海数据中心_11",
    "source": "page_1",
    "district": "浦东新区",
    "crawl_time": "2025-06-20 17:23:19",
    "index": 11
  },
  {
    "latitude": 31.266133,
    "longitude": 121.611248,
    "name": "上海数据中心_12",
    "source": "page_1",
    "district": "浦东新区",
    "crawl_time": "2025-06-20 17:23:19",
    "index": 12
  },
  {
    "latitude": 31.24631,
    "longitude": 121.620243,
    "name": "上海数据中心_13",
    "source": "page_1",
    "district": "浦东新区",
    "crawl_time": "2025-06-20 17:23:19",
    "index": 13
  },
  {
    "latitude": 31.3138344,
    "longitude": 121.4411019,
    "name": "上海数据中心_14",
    "source": "page_1",
    "district": "宝山区",
    "crawl_time": "2025-06-20 17:23:19",
    "index": 14
  },
  {
    "latitude": 31.22841,
    "longitude": 121.60208,
    "name": "上海数据中心_15",
    "source": "page_1",
    "district": "浦东新区",
    "crawl_time": "2025-06-20 17:23:19",
    "index": 15
  },
  {
    "latitude": 31.0699605,
    "longitude": 121.7495334,
    "name": "上海数据中心_16",
    "source": "page_1",
    "district": "浦东新区",
    "crawl_time": "2025-06-20 17:23:19",
    "index": 16
  },
  {
    "latitude": 31.2273498,
    "longitude": 121.4479303,
    "name": "上海数据中心_17",
    "source": "page_1",
    "district": "长宁区",
    "crawl_time": "2025-06-20 17:23:19",
    "index": 17
  },
  {
    "latitude": 31.218747,
    "longitude": 121.504401,
    "name": "上海数据中心_18",
    "source": "page_1",
    "district": "浦东新区",
    "crawl_time": "2025-06-20 17:23:19",
    "index": 18
  },
  {
    "latitude": 31.157136,
    "longitude": 121.375543,
    "name": "上海数据中心_19",
    "source": "page_1",
    "district": "闵行区",
    "crawl_time": "2025-06-20 17:23:19",
    "index": 19
  },
  {
    "latitude": 31.238498,
    "longitude": 121.501923,
    "name": "上海数据中心_20",
    "source": "page_1",
    "district": "黄浦区",
    "crawl_time": "2025-06-20 17:23:19",
    "index": 20
  },
  {
    "latitude": 31.375869,
    "longitude": 121.265374,
    "name": "上海数据中心_21",
    "source": "page_1",
    "district": "嘉定区",
    "crawl_time": "2025-06-20 17:23:19",
    "index": 21
  },
  {
    "latitude": 31.3389251,
    "longitude": 121.4370917,
    "name": "上海数据中心_22",
    "source": "page_1",
    "district": "上海市边界地区",
    "crawl_time": "2025-06-20 17:23:19",
    "index": 22
  },
  {
    "latitude": 30.8556073,
    "longitude": 121.0881835,
    "name": "上海数据中心_23",
    "source": "page_1",
    "district": "上海市边界地区",
    "crawl_time": "2025-06-20 17:23:19",
    "index": 23
  },
  {
    "latitude": 31.2243427,
    "longitude": 121.5317699,
    "name": "上海数据中心_24",
    "source": "page_1",
    "district": "浦东新区",
    "crawl_time": "2025-06-20 17:23:19",
    "index": 24
  },
  {
    "latitude": 31.3445366,
    "longitude": 121.4505657,
    "name": "上海数据中心_25",
    "source": "page_1",
    "district": "宝山区",
    "crawl_time": "2025-06-20 17:23:19",
    "index": 25
  },
  {
    "latitude": 31.1781316,
    "longitude": 121.5141392,
    "name": "上海数据中心_26",
    "source": "page_1",
    "district": "浦东新区",
    "crawl_time": "2025-06-20 17:23:19",
    "index": 26
  },
  {
    "latitude": 31.2355377,
    "longitude": 121.5106818,
    "name": "上海数据中心_27",
    "source": "page_1",
    "district": "浦东新区",
    "crawl_time": "2025-06-20 17:23:19",
    "index": 27
  },
  {
    "latitude": 31.1835211,
    "longitude": 121.5365225,
    "name": "上海数据中心_28",
    "source": "page_1",
    "district": "浦东新区",
    "crawl_time": "2025-06-20 17:23:19",
    "index": 28
  },
  {
    "latitude": 31.294949,
    "longitude": 121.438011,
    "name": "上海数据中心_29",
    "source": "page_1",
    "district": "上海市边界地区",
    "crawl_time": "2025-06-20 17:23:19",
    "index": 29
  },
  {
    "latitude": 31.266551,
    "longitude": 121.488522,
    "name": "上海数据中心_30",
    "source": "page_1",
    "district": "虹口区",
    "crawl_time": "2025-06-20 17:23:19",
    "index": 30
  },
  {
    "latitude": 31.3364826,
    "longitude": 121.6053767,
    "name": "上海数据中心_31",
    "source": "page_1",
    "district": "浦东新区",
    "crawl_time": "2025-06-20 17:23:19",
    "index": 31
  },
  {
    "latitude": 31.24984,
    "longitude": 121.395555,
    "name": "上海数据中心_32",
    "source": "page_1",
    "district": "普陀区",
    "crawl_time": "2025-06-20 17:23:19",
    "index": 32
  },
  {
    "latitude": 31.165952,
    "longitude": 121.406291,
    "name": "上海数据中心_33",
    "source": "page_1",
    "district": "闵行区",
    "crawl_time": "2025-06-20 17:23:19",
    "index": 33
  },
  {
    "latitude": 31.248951,
    "longitude": 121.4830631,
    "name": "上海数据中心_34",
    "source": "page_1",
    "district": "上海市边界地区",
    "crawl_time": "2025-06-20 17:23:19",
    "index": 34
  },
  {
    "latitude": 31.2160139,
    "longitude": 121.6326719,
    "name": "上海数据中心_35",
    "source": "page_1",
    "district": "浦东新区",
    "crawl_time": "2025-06-20 17:23:19",
    "index": 35
  }
]