[
  {
    "province": "上海市",
    "district": "上海市",
    "latitude": 31.73827,
    "longitude": 121.611248,
    "name": "SH6 Shanghai Data Center",
    "source": "上海市-shanghai-shanghai",
    "coordinates": "31.73827,121.611248",
    "index": 1,
    "crawl_time": "2025-06-20 16:52:49",
    "validation_status": "valid"
  },
  {
    "province": "上海市",
    "district": "上海市",
    "latitude": 31.34274,
    "longitude": 121.60936,
    "name": "SH5 Yangpu District Data Center",
    "source": "上海市-shanghai-shanghai",
    "coordinates": "31.34274,121.60936",
    "index": 2,
    "crawl_time": "2025-06-20 16:52:49",
    "validation_status": "valid"
  },
  {
    "province": "上海市",
    "district": "上海市",
    "latitude": 31.5070043,
    "longitude": 121.507389,
    "name": "SH3 Pudong New Area Data Center",
    "source": "上海市-shanghai-shanghai",
    "coordinates": "31.5070043,121.507389",
    "index": 3,
    "crawl_time": "2025-06-20 16:52:49",
    "validation_status": "valid"
  },
  {
    "province": "上海市",
    "district": "上海市",
    "latitude": 31.02031,
    "longitude": 121.4411019,
    "name": "Shanghai Data Center",
    "source": "上海市-shanghai-shanghai",
    "coordinates": "31.02031,121.4411019",
    "index": 4,
    "crawl_time": "2025-06-20 16:52:49",
    "validation_status": "valid"
  },
  {
    "province": "上海市",
    "district": "上海市",
    "latitude": 31.246309,
    "longitude": 121.619022,
    "name": "China Data Center",
    "source": "上海市-shanghai-shanghai",
    "coordinates": "31.246309,121.619022",
    "index": 5,
    "crawl_time": "2025-06-20 16:52:49",
    "validation_status": "valid"
  },
  {
    "province": "上海市",
    "district": "上海市",
    "latitude": 31.22841,
    "longitude": 121.6226,
    "name": "Shanghai Telecom Caoxi Data Center",
    "source": "上海市-shanghai-shanghai",
    "coordinates": "31.22841,121.6226",
    "index": 6,
    "crawl_time": "2025-06-20 16:52:49",
    "validation_status": "valid"
  },
  {
    "province": "上海市",
    "district": "上海市",
    "latitude": 31.21274,
    "longitude": 121.504401,
    "name": "GDS SH3, SH4 Data Center",
    "source": "上海市-shanghai-shanghai",
    "coordinates": "31.21274,121.504401",
    "index": 7,
    "crawl_time": "2025-06-20 16:52:49",
    "validation_status": "valid"
  },
  {
    "province": "上海市",
    "district": "上海市",
    "latitude": 31.31723,
    "longitude": 121.65115,
    "name": "Information Park Data Center",
    "source": "上海市-shanghai-shanghai",
    "coordinates": "31.31723,121.65115",
    "index": 8,
    "crawl_time": "2025-06-20 16:52:49",
    "validation_status": "valid"
  },
  {
    "province": "上海市",
    "district": "上海市",
    "latitude": 31.1837487,
    "longitude": 121.620243,
    "name": "Suzhou Chang'an Road Data Center",
    "source": "上海市-shanghai-shanghai",
    "coordinates": "31.1837487,121.620243",
    "index": 9,
    "crawl_time": "2025-06-20 16:52:49",
    "validation_status": "valid"
  },
  {
    "province": "上海市",
    "district": "上海市",
    "latitude": 31.221517,
    "longitude": 121.4524,
    "name": "SHA5 Shanghai Data Center",
    "source": "上海市-shanghai-shanghai",
    "coordinates": "31.221517,121.4524",
    "index": 10,
    "crawl_time": "2025-06-20 16:52:49",
    "validation_status": "valid"
  },
  {
    "province": "上海市",
    "district": "上海市",
    "latitude": 31.320884,
    "longitude": 121.63796,
    "name": "Shanghai Hulan IDC Data Center",
    "source": "上海市-shanghai-shanghai",
    "coordinates": "31.320884,121.63796",
    "index": 11,
    "crawl_time": "2025-06-20 16:52:49",
    "validation_status": "valid"
  },
  {
    "province": "上海市",
    "district": "上海市",
    "latitude": 31.230416,
    "longitude": 121.31013,
    "name": "Shanghai Hotline Information Building Data Center",
    "source": "上海市-shanghai-shanghai",
    "coordinates": "31.230416,121.31013",
    "index": 12,
    "crawl_time": "2025-06-20 16:52:49",
    "validation_status": "valid"
  },
  {
    "province": "上海市",
    "district": "上海市",
    "latitude": 31.276205,
    "longitude": 121.7495334,
    "name": "SH1 Pudong New Area Data Center",
    "source": "上海市-shanghai-shanghai",
    "coordinates": "31.276205,121.7495334",
    "index": 13,
    "crawl_time": "2025-06-20 16:52:49",
    "validation_status": "valid"
  },
  {
    "province": "上海市",
    "district": "上海市",
    "latitude": 31.3138344,
    "longitude": 121.59566,
    "name": "SH2 Data Center",
    "source": "上海市-shanghai-shanghai",
    "coordinates": "31.3138344,121.59566",
    "index": 14,
    "crawl_time": "2025-06-20 16:52:49",
    "validation_status": "valid"
  },
  {
    "province": "上海市",
    "district": "上海市",
    "latitude": 31.344898,
    "longitude": 121.62968,
    "name": "Shanghai Jinqiao Data Center",
    "source": "上海市-shanghai-shanghai",
    "coordinates": "31.344898,121.62968",
    "index": 15,
    "crawl_time": "2025-06-20 16:52:49",
    "validation_status": "valid"
  },
  {
    "province": "上海市",
    "district": "上海市",
    "latitude": 31.32161,
    "longitude": 121.541634,
    "name": "Kunshan Data Center (KS2)",
    "source": "上海市-shanghai-shanghai",
    "coordinates": "31.32161,121.541634",
    "index": 16,
    "crawl_time": "2025-06-20 16:52:49",
    "validation_status": "valid"
  },
  {
    "province": "上海市",
    "district": "上海市",
    "latitude": 31.3035665,
    "longitude": 121.620621,
    "name": "Shanghai Data Center (SH8)",
    "source": "上海市-shanghai-shanghai",
    "coordinates": "31.3035665,121.620621",
    "index": 17,
    "crawl_time": "2025-06-20 16:52:49",
    "validation_status": "valid"
  },
  {
    "province": "上海市",
    "district": "上海市",
    "latitude": 31.670484,
    "longitude": 121.623306,
    "name": "Shanghai Zhangjiang Data Center",
    "source": "上海市-shanghai-shanghai",
    "coordinates": "31.670484,121.623306",
    "index": 18,
    "crawl_time": "2025-06-20 16:52:49",
    "validation_status": "valid"
  },
  {
    "province": "上海市",
    "district": "上海市",
    "latitude": 31.23645,
    "longitude": 121.4371364,
    "name": "Shanghai Data Center (SH13)",
    "source": "上海市-shanghai-shanghai",
    "coordinates": "31.23645,121.4371364",
    "index": 19,
    "crawl_time": "2025-06-20 16:52:49",
    "validation_status": "valid"
  },
  {
    "province": "上海市",
    "district": "上海市",
    "latitude": 31.2767859,
    "longitude": 121.606972,
    "name": "Shanghai Data Center (SH19)",
    "source": "上海市-shanghai-shanghai",
    "coordinates": "31.2767859,121.606972",
    "index": 20,
    "crawl_time": "2025-06-20 16:52:49",
    "validation_status": "valid"
  },
  {
    "province": "上海市",
    "district": "上海市",
    "latitude": 31.1065,
    "longitude": 121.544379,
    "name": "Nanhui IDC Data Center",
    "source": "上海市-shanghai-shanghai",
    "coordinates": "31.1065,121.544379",
    "index": 21,
    "crawl_time": "2025-06-20 16:52:49",
    "validation_status": "valid"
  },
  {
    "province": "上海市",
    "district": "上海市",
    "latitude": 31.0699605,
    "longitude": 121.541897,
    "name": "SH2 Pudong New Area Data Center",
    "source": "上海市-shanghai-shanghai",
    "coordinates": "31.0699605,121.541897",
    "index": 22,
    "crawl_time": "2025-06-20 16:52:49",
    "validation_status": "valid"
  },
  {
    "province": "上海市",
    "district": "上海市",
    "latitude": 31.240308,
    "longitude": 121.451176,
    "name": "Shanghai Data Center (SH14)",
    "source": "上海市-shanghai-shanghai",
    "coordinates": "31.240308,121.451176",
    "index": 23,
    "crawl_time": "2025-06-20 16:52:49",
    "validation_status": "valid"
  },
  {
    "province": "上海市",
    "district": "上海市",
    "latitude": 31.8713248,
    "longitude": 121.509968,
    "name": "Shanghai Data Center (SH11)",
    "source": "上海市-shanghai-shanghai",
    "coordinates": "31.8713248,121.509968",
    "index": 24,
    "crawl_time": "2025-06-20 16:52:49",
    "validation_status": "valid"
  },
  {
    "province": "上海市",
    "district": "上海市",
    "latitude": 31.266133,
    "longitude": 121.637741,
    "name": "Shanghai Data Center (SH17)",
    "source": "上海市-shanghai-shanghai",
    "coordinates": "31.266133,121.637741",
    "index": 25,
    "crawl_time": "2025-06-20 16:52:49",
    "validation_status": "valid"
  },
  {
    "province": "上海市",
    "district": "上海市",
    "latitude": 31.309698,
    "longitude": 121.60208,
    "name": "Shanghai Telecom Guoli Data Center",
    "source": "上海市-shanghai-shanghai",
    "coordinates": "31.309698,121.60208",
    "index": 26,
    "crawl_time": "2025-06-20 16:52:49",
    "validation_status": "valid"
  },
  {
    "province": "上海市",
    "district": "上海市",
    "latitude": 31.30891,
    "longitude": 121.50428,
    "name": "Shanghai Data Center (SH18)",
    "source": "上海市-shanghai-shanghai",
    "coordinates": "31.30891,121.50428",
    "index": 27,
    "crawl_time": "2025-06-20 16:52:49",
    "validation_status": "valid"
  },
  {
    "province": "上海市",
    "district": "上海市",
    "latitude": 31.34185,
    "longitude": 121.4479303,
    "name": "Shanghai East Gate IDC Data Center",
    "source": "上海市-shanghai-shanghai",
    "coordinates": "31.34185,121.4479303",
    "index": 28,
    "crawl_time": "2025-06-20 16:52:49",
    "validation_status": "valid"
  },
  {
    "province": "上海市",
    "district": "上海市",
    "latitude": 31.23689,
    "longitude": 121.6531,
    "name": "Changshu Road IDC Data Center",
    "source": "上海市-shanghai-shanghai",
    "coordinates": "31.23689,121.6531",
    "index": 29,
    "crawl_time": "2025-06-20 16:52:49",
    "validation_status": "valid"
  },
  {
    "province": "上海市",
    "district": "上海市",
    "latitude": 31.218747,
    "longitude": 121.473701,
    "name": "Shanghai Data Center (SH5)",
    "source": "上海市-shanghai-shanghai",
    "coordinates": "31.218747,121.473701",
    "index": 30,
    "crawl_time": "2025-06-20 16:52:49",
    "validation_status": "valid"
  }
]