[
  {
    "province": "上海市",
    "district": "黄浦区",
    "latitude": 31.230416,
    "longitude": 121.473701,
    "name": "SH6 Shanghai Data Center",
    "source": "https://www.datacenters.com/locations/china/shanghai/shanghai",
    "coordinates": "31.230416,121.473701",
    "index": 1,
    "crawl_time": "2025-06-20 17:01:25"
  },
  {
    "province": "上海市",
    "district": "浦东新区",
    "latitude": 31.31723,
    "longitude": 121.623306,
    "name": "SH5 Yangpu District Data Center",
    "source": "https://www.datacenters.com/locations/china/shanghai/shanghai",
    "coordinates": "31.31723,121.623306",
    "index": 2,
    "crawl_time": "2025-06-20 17:01:25"
  },
  {
    "province": "上海市",
    "district": "杨浦区",
    "latitude": 31.2767859,
    "longitude": 121.541634,
    "name": "SH3 Pudong New Area Data Center",
    "source": "https://www.datacenters.com/locations/china/shanghai/shanghai",
    "coordinates": "31.2767859,121.541634",
    "index": 3,
    "crawl_time": "2025-06-20 17:01:25"
  },
  {
    "province": "上海市",
    "district": "浦东新区",
    "latitude": 31.246309,
    "longitude": 121.620621,
    "name": "Shanghai Data Center",
    "source": "https://www.datacenters.com/locations/china/shanghai/shanghai",
    "coordinates": "31.246309,121.620621",
    "index": 4,
    "crawl_time": "2025-06-20 17:01:25"
  },
  {
    "province": "上海市",
    "district": "杨浦区",
    "latitude": 31.240308,
    "longitude": 121.507389,
    "name": "Information Park Data Center",
    "source": "https://www.datacenters.com/locations/china/shanghai/shanghai",
    "coordinates": "31.240308,121.507389",
    "index": 5,
    "crawl_time": "2025-06-20 17:01:25"
  },
  {
    "province": "上海市",
    "district": "徐汇区",
    "latitude": 31.1837487,
    "longitude": 121.4371364,
    "name": "Suzhou Chang'an Road Data Center",
    "source": "https://www.datacenters.com/locations/china/shanghai/shanghai",
    "coordinates": "31.1837487,121.4371364",
    "index": 6,
    "crawl_time": "2025-06-20 17:01:25"
  },
  {
    "province": "上海市",
    "district": "浦东新区",
    "latitude": 31.320884,
    "longitude": 121.606972,
    "name": "SHA5 Shanghai Data Center",
    "source": "https://www.datacenters.com/locations/china/shanghai/shanghai",
    "coordinates": "31.320884,121.606972",
    "index": 7,
    "crawl_time": "2025-06-20 17:01:25"
  },
  {
    "province": "上海市",
    "district": "浦东新区",
    "latitude": 31.221517,
    "longitude": 121.544379,
    "name": "Shanghai Hulan IDC Data Center",
    "source": "https://www.datacenters.com/locations/china/shanghai/shanghai",
    "coordinates": "31.221517,121.544379",
    "index": 8,
    "crawl_time": "2025-06-20 17:01:25"
  },
  {
    "province": "上海市",
    "district": "杨浦区",
    "latitude": 31.276205,
    "longitude": 121.541897,
    "name": "Shanghai Hotline Information Building Data Center",
    "source": "https://www.datacenters.com/locations/china/shanghai/shanghai",
    "coordinates": "31.276205,121.541897",
    "index": 9,
    "crawl_time": "2025-06-20 17:01:25"
  },
  {
    "province": "上海市",
    "district": "宝山区",
    "latitude": 31.344898,
    "longitude": 121.451176,
    "name": "SH1 Pudong New Area Data Center",
    "source": "https://www.datacenters.com/locations/china/shanghai/shanghai",
    "coordinates": "31.344898,121.451176",
    "index": 10,
    "crawl_time": "2025-06-20 17:01:25"
  },
  {
    "province": "上海市",
    "district": "杨浦区",
    "latitude": 31.2341239,
    "longitude": 121.509968,
    "name": "SH2 Data Center",
    "source": "https://www.datacenters.com/locations/china/shanghai/shanghai",
    "coordinates": "31.2341239,121.509968",
    "index": 11,
    "crawl_time": "2025-06-20 17:01:25"
  },
  {
    "province": "上海市",
    "district": "浦东新区",
    "latitude": 31.214146,
    "longitude": 121.637741,
    "name": "Shanghai Jinqiao Data Center",
    "source": "https://www.datacenters.com/locations/china/shanghai/shanghai",
    "coordinates": "31.214146,121.637741",
    "index": 12,
    "crawl_time": "2025-06-20 17:01:25"
  },
  {
    "province": "上海市",
    "district": "浦东新区",
    "latitude": 31.24631,
    "longitude": 121.620243,
    "name": "SHA2 Shanghai Data Center",
    "source": "https://www.datacenters.com/locations/china/shanghai/shanghai",
    "coordinates": "31.24631,121.620243",
    "index": 13,
    "crawl_time": "2025-06-20 17:01:25"
  },
  {
    "province": "上海市",
    "district": "浦东新区",
    "latitude": 31.266133,
    "longitude": 121.611248,
    "name": "Shanghai Data Center (SH4)",
    "source": "https://www.datacenters.com/locations/china/shanghai/shanghai",
    "coordinates": "31.266133,121.611248",
    "index": 14,
    "crawl_time": "2025-06-20 17:01:25"
  },
  {
    "province": "上海市",
    "district": "普陀区",
    "latitude": 31.3138344,
    "longitude": 121.4411019,
    "name": "Kunshan Data Center (KS3)",
    "source": "https://www.datacenters.com/locations/china/shanghai/shanghai",
    "coordinates": "31.3138344,121.4411019",
    "index": 15,
    "crawl_time": "2025-06-20 17:01:25"
  },
  {
    "province": "上海市",
    "district": "奉贤区",
    "latitude": 31.02031,
    "longitude": 121.4524,
    "name": "SHA3 Shanghai Data Center",
    "source": "https://www.datacenters.com/locations/china/shanghai/shanghai",
    "coordinates": "31.02031,121.4524",
    "index": 16,
    "crawl_time": "2025-06-20 17:01:25"
  },
  {
    "province": "上海市",
    "district": "浦东新区",
    "latitude": 31.32161,
    "longitude": 121.60936,
    "name": "Kunshan Data Center (KS2)",
    "source": "https://www.datacenters.com/locations/china/shanghai/shanghai",
    "coordinates": "31.32161,121.60936",
    "index": 17,
    "crawl_time": "2025-06-20 17:01:25"
  },
  {
    "province": "上海市",
    "district": "浦东新区",
    "latitude": 31.22841,
    "longitude": 121.60208,
    "name": "Shanghai Data Center (SH8)",
    "source": "https://www.datacenters.com/locations/china/shanghai/shanghai",
    "coordinates": "31.22841,121.60208",
    "index": 18,
    "crawl_time": "2025-06-20 17:01:25"
  },
  {
    "province": "上海市",
    "district": "浦东新区",
    "latitude": 31.309698,
    "longitude": 121.619022,
    "name": "Shanghai Zhangjiang Data Center",
    "source": "https://www.datacenters.com/locations/china/shanghai/shanghai",
    "coordinates": "31.309698,121.619022",
    "index": 19,
    "crawl_time": "2025-06-20 17:01:25"
  },
  {
    "province": "上海市",
    "district": "浦东新区",
    "latitude": 31.21274,
    "longitude": 121.63796,
    "name": "Shanghai Data Center (SH13)",
    "source": "https://www.datacenters.com/locations/china/shanghai/shanghai",
    "coordinates": "31.21274,121.63796",
    "index": 20,
    "crawl_time": "2025-06-20 17:01:25"
  },
  {
    "province": "上海市",
    "district": "嘉定区",
    "latitude": 31.34185,
    "longitude": 121.31013,
    "name": "Shanghai Data Center (SH19)",
    "source": "https://www.datacenters.com/locations/china/shanghai/shanghai",
    "coordinates": "31.34185,121.31013",
    "index": 21,
    "crawl_time": "2025-06-20 17:01:25"
  },
  {
    "province": "上海市",
    "district": "浦东新区",
    "latitude": 31.30891,
    "longitude": 121.6226,
    "name": "Nanhui IDC Data Center",
    "source": "https://www.datacenters.com/locations/china/shanghai/shanghai",
    "coordinates": "31.30891,121.6226",
    "index": 22,
    "crawl_time": "2025-06-20 17:01:25"
  },
  {
    "province": "上海市",
    "district": "浦东新区",
    "latitude": 31.0699605,
    "longitude": 121.7495334,
    "name": "SH2 Pudong New Area Data Center",
    "source": "https://www.datacenters.com/locations/china/shanghai/shanghai",
    "coordinates": "31.0699605,121.7495334",
    "index": 23,
    "crawl_time": "2025-06-20 17:01:25"
  },
  {
    "province": "上海市",
    "district": "浦东新区",
    "latitude": 31.34274,
    "longitude": 121.59566,
    "name": "Shanghai Data Center (SH11)",
    "source": "https://www.datacenters.com/locations/china/shanghai/shanghai",
    "coordinates": "31.34274,121.59566",
    "index": 24,
    "crawl_time": "2025-06-20 17:01:25"
  },
  {
    "province": "上海市",
    "district": "浦东新区",
    "latitude": 31.3035665,
    "longitude": 121.62968,
    "name": "Shanghai Data Center (SH17)",
    "source": "https://www.datacenters.com/locations/china/shanghai/shanghai",
    "coordinates": "31.3035665,121.62968",
    "index": 25,
    "crawl_time": "2025-06-20 17:01:25"
  },
  {
    "province": "上海市",
    "district": "徐汇区",
    "latitude": 31.1065,
    "longitude": 121.50428,
    "name": "Shanghai Telecom Guoli Data Center",
    "source": "https://www.datacenters.com/locations/china/shanghai/shanghai",
    "coordinates": "31.1065,121.50428",
    "index": 26,
    "crawl_time": "2025-06-20 17:01:25"
  },
  {
    "province": "上海市",
    "district": "静安区",
    "latitude": 31.2273498,
    "longitude": 121.4479303,
    "name": "Shanghai Data Center (SH18)",
    "source": "https://www.datacenters.com/locations/china/shanghai/shanghai",
    "coordinates": "31.2273498,121.4479303",
    "index": 27,
    "crawl_time": "2025-06-20 17:01:25"
  },
  {
    "province": "上海市",
    "district": "黄浦区",
    "latitude": 31.218747,
    "longitude": 121.504401,
    "name": "Changshu Road IDC Data Center",
    "source": "https://www.datacenters.com/locations/china/shanghai/shanghai",
    "coordinates": "31.218747,121.504401",
    "index": 28,
    "crawl_time": "2025-06-20 17:01:25"
  },
  {
    "province": "上海市",
    "district": "浦东新区",
    "latitude": 31.23645,
    "longitude": 121.65115,
    "name": "Shanghai Data Center (SH7)",
    "source": "https://www.datacenters.com/locations/china/shanghai/shanghai",
    "coordinates": "31.23645,121.65115",
    "index": 29,
    "crawl_time": "2025-06-20 17:01:25"
  },
  {
    "province": "上海市",
    "district": "崇明区",
    "latitude": 31.73827,
    "longitude": 120.96294,
    "name": "Shanghai Data Center (SH5)",
    "source": "https://www.datacenters.com/locations/china/shanghai/shanghai",
    "coordinates": "31.73827,120.96294",
    "index": 30,
    "crawl_time": "2025-06-20 17:01:25"
  },
  {
    "province": "上海市",
    "district": "浦东新区",
    "latitude": 31.23689,
    "longitude": 121.6531,
    "name": "Wuxi International IDC Data Center",
    "source": "https://www.datacenters.com/locations/china/shanghai/shanghai",
    "coordinates": "31.23689,121.6531",
    "index": 31,
    "crawl_time": "2025-06-20 17:01:25"
  },
  {
    "province": "上海市",
    "district": "闵行区",
    "latitude": 31.157136,
    "longitude": 121.375543,
    "name": "Shanghai Jiyun IDC Data Center",
    "source": "https://www.datacenters.com/locations/china/shanghai",
    "coordinates": "31.157136,121.375543",
    "index": 1,
    "crawl_time": "2025-06-20 17:01:56"
  },
  {
    "province": "上海市",
    "district": "虹口区",
    "latitude": 31.238498,
    "longitude": 121.501923,
    "name": "Shanghai Jianan Data Center",
    "source": "https://www.datacenters.com/locations/china/shanghai",
    "coordinates": "31.238498,121.501923",
    "index": 2,
    "crawl_time": "2025-06-20 17:01:56"
  },
  {
    "province": "上海市",
    "district": "嘉定区",
    "latitude": 31.375869,
    "longitude": 121.265374,
    "name": "Shanghai Quanhua IDC Data Center",
    "source": "https://www.datacenters.com/locations/china/shanghai",
    "coordinates": "31.375869,121.265374",
    "index": 3,
    "crawl_time": "2025-06-20 17:01:56"
  },
  {
    "province": "上海市",
    "district": "宝山区",
    "latitude": 31.3389251,
    "longitude": 121.4370917,
    "name": "Shanghai Yunlian IDC Data Center",
    "source": "https://www.datacenters.com/locations/china/shanghai",
    "coordinates": "31.3389251,121.4370917",
    "index": 4,
    "crawl_time": "2025-06-20 17:01:56"
  },
  {
    "province": "上海市",
    "district": "松江区",
    "latitude": 30.8556073,
    "longitude": 121.0881835,
    "name": "Shanghai Shenjia Lane IDC Data Center",
    "source": "https://www.datacenters.com/locations/china/shanghai",
    "coordinates": "30.8556073,121.0881835",
    "index": 5,
    "crawl_time": "2025-06-20 17:01:56"
  },
  {
    "province": "上海市",
    "district": "杨浦区",
    "latitude": 31.2243427,
    "longitude": 121.5317699,
    "name": "Shanghai Lujiazui IDC Data Center",
    "source": "https://www.datacenters.com/locations/china/shanghai",
    "coordinates": "31.2243427,121.5317699",
    "index": 6,
    "crawl_time": "2025-06-20 17:01:56"
  },
  {
    "province": "上海市",
    "district": "宝山区",
    "latitude": 31.3445366,
    "longitude": 121.4505657,
    "name": "Shanghai Beiai IDC Data Center",
    "source": "https://www.datacenters.com/locations/china/shanghai",
    "coordinates": "31.3445366,121.4505657",
    "index": 7,
    "crawl_time": "2025-06-20 17:01:56"
  },
  {
    "province": "上海市",
    "district": "黄浦区",
    "latitude": 31.1781316,
    "longitude": 121.5141392,
    "name": "Shanghai New Taopu IDC Data Center",
    "source": "https://www.datacenters.com/locations/china/shanghai",
    "coordinates": "31.1781316,121.5141392",
    "index": 8,
    "crawl_time": "2025-06-20 17:01:56"
  },
  {
    "province": "上海市",
    "district": "杨浦区",
    "latitude": 31.2355377,
    "longitude": 121.5106818,
    "name": "Shanghai Ouyang Data Center",
    "source": "https://www.datacenters.com/locations/china/shanghai",
    "coordinates": "31.2355377,121.5106818",
    "index": 9,
    "crawl_time": "2025-06-20 17:01:56"
  },
  {
    "province": "上海市",
    "district": "浦东新区",
    "latitude": 31.1835211,
    "longitude": 121.5365225,
    "name": "Shanghai Waigaoqiao Data Center",
    "source": "https://www.datacenters.com/locations/china/shanghai",
    "coordinates": "31.1835211,121.5365225",
    "index": 10,
    "crawl_time": "2025-06-20 17:01:56"
  },
  {
    "province": "上海市",
    "district": "普陀区",
    "latitude": 31.294949,
    "longitude": 121.438011,
    "name": "Shanghai Guilin IDC Data Center",
    "source": "https://www.datacenters.com/locations/china/shanghai",
    "coordinates": "31.294949,121.438011",
    "index": 11,
    "crawl_time": "2025-06-20 17:01:56"
  },
  {
    "province": "上海市",
    "district": "虹口区",
    "latitude": 31.266551,
    "longitude": 121.488522,
    "name": "Shanghai Haining Data Center",
    "source": "https://www.datacenters.com/locations/china/shanghai",
    "coordinates": "31.266551,121.488522",
    "index": 12,
    "crawl_time": "2025-06-20 17:01:56"
  },
  {
    "province": "上海市",
    "district": "浦东新区",
    "latitude": 31.3364826,
    "longitude": 121.6053767,
    "name": "Shanghai Zhangdong IDC Data Center",
    "source": "https://www.datacenters.com/locations/china/shanghai",
    "coordinates": "31.3364826,121.6053767",
    "index": 13,
    "crawl_time": "2025-06-20 17:01:56"
  },
  {
    "province": "上海市",
    "district": "普陀区",
    "latitude": 31.24984,
    "longitude": 121.395555,
    "name": "About Shanghai, China Data Centers Market",
    "source": "https://www.datacenters.com/locations/china/shanghai",
    "coordinates": "31.24984,121.395555",
    "index": 14,
    "crawl_time": "2025-06-20 17:01:56"
  },
  {
    "province": "上海市",
    "district": "徐汇区",
    "latitude": 31.165952,
    "longitude": 121.406291,
    "name": "Top 2 Cities with Data Centers",
    "source": "https://www.datacenters.com/locations/china/shanghai",
    "coordinates": "31.165952,121.406291",
    "index": 15,
    "crawl_time": "2025-06-20 17:01:56"
  },
  {
    "province": "上海市",
    "district": "黄浦区",
    "latitude": 31.248951,
    "longitude": 121.4830631,
    "name": "Top 6 Providers with Data Centers",
    "source": "https://www.datacenters.com/locations/china/shanghai",
    "coordinates": "31.248951,121.4830631",
    "index": 16,
    "crawl_time": "2025-06-20 17:01:56"
  },
  {
    "province": "上海市",
    "district": "浦东新区",
    "latitude": 31.2160139,
    "longitude": 121.6326719,
    "name": "Shanghai Data Centers - Providers Map in Shanghai, China",
    "source": "https://www.datacenters.com/locations/china/shanghai",
    "coordinates": "31.2160139,121.6326719",
    "index": 17,
    "crawl_time": "2025-06-20 17:01:56"
  }
]