[
  {
    "name": "SH6 Shanghai Data Center",
    "latitude": 31.230416,
    "longitude": 121.473701,
    "source": "page_1",
    "province": "上海市",
    "city": "上海市",
    "coordinates": "31.230416,121.473701",
    "crawl_time": "2025-06-28 22:11:27",
    "index": 1
  },
  {
    "name": "SH5 Yangpu District Data Center",
    "latitude": 31.31723,
    "longitude": 121.623306,
    "source": "page_1",
    "province": "上海市",
    "city": "上海市",
    "coordinates": "31.31723,121.623306",
    "crawl_time": "2025-06-28 22:11:27",
    "index": 2
  },
  {
    "name": "SH3 Pudong New Area Data Center",
    "latitude": 31.2767859,
    "longitude": 121.541634,
    "source": "page_1",
    "province": "上海市",
    "city": "上海市",
    "coordinates": "31.2767859,121.541634",
    "crawl_time": "2025-06-28 22:11:27",
    "index": 3
  },
  {
    "name": "China East-Shanghai",
    "latitude": 31.246309,
    "longitude": 121.620621,
    "source": "page_1",
    "province": "上海市",
    "city": "上海市",
    "coordinates": "31.246309,121.620621",
    "crawl_time": "2025-06-28 22:11:27",
    "index": 4
  },
  {
    "name": "GDS SH3, SH4 Data Center",
    "latitude": 31.1837487,
    "longitude": 121.4371364,
    "source": "page_1",
    "province": "上海市",
    "city": "上海市",
    "coordinates": "31.1837487,121.4371364",
    "crawl_time": "2025-06-28 22:11:27",
    "index": 5
  },
  {
    "name": "Information Park Data Center",
    "latitude": 31.320884,
    "longitude": 121.606972,
    "source": "page_1",
    "province": "上海市",
    "city": "上海市",
    "coordinates": "31.320884,121.606972",
    "crawl_time": "2025-06-28 22:11:27",
    "index": 6
  },
  {
    "name": "SHA5 Shanghai Data Center",
    "latitude": 31.221517,
    "longitude": 121.544379,
    "source": "page_1",
    "province": "上海市",
    "city": "上海市",
    "coordinates": "31.221517,121.544379",
    "crawl_time": "2025-06-28 22:11:27",
    "index": 7
  },
  {
    "name": "Shanghai Hulan IDC Data Center",
    "latitude": 31.276205,
    "longitude": 121.541897,
    "source": "page_1",
    "province": "上海市",
    "city": "上海市",
    "coordinates": "31.276205,121.541897",
    "crawl_time": "2025-06-28 22:11:27",
    "index": 8
  },
  {
    "name": "Shanghai Hotline Information Building Data Center",
    "latitude": 31.344898,
    "longitude": 121.451176,
    "source": "page_1",
    "province": "上海市",
    "city": "上海市",
    "coordinates": "31.344898,121.451176",
    "crawl_time": "2025-06-28 22:11:27",
    "index": 9
  },
  {
    "name": "SH1 Pudong New Area Data Center",
    "latitude": 31.2341239,
    "longitude": 121.509968,
    "source": "page_1",
    "province": "上海市",
    "city": "上海市",
    "coordinates": "31.2341239,121.509968",
    "crawl_time": "2025-06-28 22:11:27",
    "index": 10
  },
  {
    "name": "Shanghai Jinqiao Data Center",
    "latitude": 31.214146,
    "longitude": 121.637741,
    "source": "page_1",
    "province": "上海市",
    "city": "上海市",
    "coordinates": "31.214146,121.637741",
    "crawl_time": "2025-06-28 22:11:27",
    "index": 11
  },
  {
    "name": "SH2 Data Center",
    "latitude": 31.266133,
    "longitude": 121.611248,
    "source": "page_1",
    "province": "上海市",
    "city": "上海市",
    "coordinates": "31.266133,121.611248",
    "crawl_time": "2025-06-28 22:11:27",
    "index": 12
  },
  {
    "name": "SHA2 Shanghai Data Center",
    "latitude": 31.24631,
    "longitude": 121.620243,
    "source": "page_1",
    "province": "上海市",
    "city": "上海市",
    "coordinates": "31.24631,121.620243",
    "crawl_time": "2025-06-28 22:11:27",
    "index": 13
  },
  {
    "name": "SHA3 Shanghai Data Center",
    "latitude": 31.3138344,
    "longitude": 121.4411019,
    "source": "page_1",
    "province": "上海市",
    "city": "上海市",
    "coordinates": "31.3138344,121.4411019",
    "crawl_time": "2025-06-28 22:11:27",
    "index": 14
  },
  {
    "name": "Nanhui IDC Data Center",
    "latitude": 31.22841,
    "longitude": 121.60208,
    "source": "page_1",
    "province": "上海市",
    "city": "上海市",
    "coordinates": "31.22841,121.60208",
    "crawl_time": "2025-06-28 22:11:27",
    "index": 15
  },
  {
    "name": "SH2 Pudong New Area Data Center",
    "latitude": 31.0699605,
    "longitude": 121.7495334,
    "source": "page_1",
    "province": "上海市",
    "city": "上海市",
    "coordinates": "31.0699605,121.7495334",
    "crawl_time": "2025-06-28 22:11:27",
    "index": 16
  },
  {
    "name": "Shanghai East Gate IDC Data Center",
    "latitude": 31.2273498,
    "longitude": 121.4479303,
    "source": "page_1",
    "province": "上海市",
    "city": "上海市",
    "coordinates": "31.2273498,121.4479303",
    "crawl_time": "2025-06-28 22:11:27",
    "index": 17
  },
  {
    "name": "Shanghai Changxin Caobao Road Data Center",
    "latitude": 31.218747,
    "longitude": 121.504401,
    "source": "page_1",
    "province": "上海市",
    "city": "上海市",
    "coordinates": "31.218747,121.504401",
    "crawl_time": "2025-06-28 22:11:27",
    "index": 18
  },
  {
    "name": "XIY2 Xi'an Data Center",
    "latitude": 31.157136,
    "longitude": 121.375543,
    "source": "page_1",
    "province": "上海市",
    "city": "上海市",
    "coordinates": "31.157136,121.375543",
    "crawl_time": "2025-06-28 22:11:27",
    "index": 19
  },
  {
    "name": "Shanghai Xingshun Data Center",
    "latitude": 31.238498,
    "longitude": 121.501923,
    "source": "page_1",
    "province": "上海市",
    "city": "上海市",
    "coordinates": "31.238498,121.501923",
    "crawl_time": "2025-06-28 22:11:27",
    "index": 20
  },
  {
    "name": "Shanghai Jiyun IDC Data Center",
    "latitude": 31.375869,
    "longitude": 121.265374,
    "source": "page_1",
    "province": "上海市",
    "city": "上海市",
    "coordinates": "31.375869,121.265374",
    "crawl_time": "2025-06-28 22:11:27",
    "index": 21
  },
  {
    "name": "Shanghai Jianan Data Center",
    "latitude": 31.3389251,
    "longitude": 121.4370917,
    "source": "page_1",
    "province": "上海市",
    "city": "上海市",
    "coordinates": "31.3389251,121.4370917",
    "crawl_time": "2025-06-28 22:11:27",
    "index": 22
  },
  {
    "name": "Shanghai Quanhua IDC Data Center",
    "latitude": 30.8556073,
    "longitude": 121.0881835,
    "source": "page_1",
    "province": "上海市",
    "city": "上海市",
    "coordinates": "30.8556073,121.0881835",
    "crawl_time": "2025-06-28 22:11:27",
    "index": 23
  },
  {
    "name": "SHA3 Shanghai Data Center",
    "latitude": 31.2243427,
    "longitude": 121.5317699,
    "source": "page_1",
    "province": "上海市",
    "city": "上海市",
    "coordinates": "31.2243427,121.5317699",
    "crawl_time": "2025-06-28 22:11:27",
    "index": 24
  },
  {
    "name": "Shanghai Yunlian IDC Data Center",
    "latitude": 31.3445366,
    "longitude": 121.4505657,
    "source": "page_1",
    "province": "上海市",
    "city": "上海市",
    "coordinates": "31.3445366,121.4505657",
    "crawl_time": "2025-06-28 22:11:27",
    "index": 25
  },
  {
    "name": "Shanghai Shenjia Lane IDC Data Center",
    "latitude": 31.1781316,
    "longitude": 121.5141392,
    "source": "page_1",
    "province": "上海市",
    "city": "上海市",
    "coordinates": "31.1781316,121.5141392",
    "crawl_time": "2025-06-28 22:11:27",
    "index": 26
  },
  {
    "name": "Shanghai Beiai IDC Data Center",
    "latitude": 31.2355377,
    "longitude": 121.5106818,
    "source": "page_1",
    "province": "上海市",
    "city": "上海市",
    "coordinates": "31.2355377,121.5106818",
    "crawl_time": "2025-06-28 22:11:27",
    "index": 27
  },
  {
    "name": "Shanghai New Taopu IDC Data Center",
    "latitude": 31.1835211,
    "longitude": 121.5365225,
    "source": "page_1",
    "province": "上海市",
    "city": "上海市",
    "coordinates": "31.1835211,121.5365225",
    "crawl_time": "2025-06-28 22:11:27",
    "index": 28
  },
  {
    "name": "Shanghai Ouyang Data Center",
    "latitude": 31.294949,
    "longitude": 121.438011,
    "source": "page_1",
    "province": "上海市",
    "city": "上海市",
    "coordinates": "31.294949,121.438011",
    "crawl_time": "2025-06-28 22:11:27",
    "index": 29
  },
  {
    "name": "Shanghai Waigaoqiao Data Center",
    "latitude": 31.266551,
    "longitude": 121.488522,
    "source": "page_1",
    "province": "上海市",
    "city": "上海市",
    "coordinates": "31.266551,121.488522",
    "crawl_time": "2025-06-28 22:11:27",
    "index": 30
  },
  {
    "name": "Shanghai Zhenru IDC Data Center",
    "latitude": 31.3364826,
    "longitude": 121.6053767,
    "source": "page_1",
    "province": "上海市",
    "city": "上海市",
    "coordinates": "31.3364826,121.6053767",
    "crawl_time": "2025-06-28 22:11:27",
    "index": 31
  },
  {
    "name": "Shanghai Guilin IDC Data Center",
    "latitude": 31.24984,
    "longitude": 121.395555,
    "source": "page_1",
    "province": "上海市",
    "city": "上海市",
    "coordinates": "31.24984,121.395555",
    "crawl_time": "2025-06-28 22:11:27",
    "index": 32
  },
  {
    "name": "Shanghai Haining Data Center",
    "latitude": 31.165952,
    "longitude": 121.406291,
    "source": "page_1",
    "province": "上海市",
    "city": "上海市",
    "coordinates": "31.165952,121.406291",
    "crawl_time": "2025-06-28 22:11:27",
    "index": 33
  },
  {
    "name": "Shanghai Zhangdong IDC Data Center",
    "latitude": 31.248951,
    "longitude": 121.4830631,
    "source": "page_1",
    "province": "上海市",
    "city": "上海市",
    "coordinates": "31.248951,121.4830631",
    "crawl_time": "2025-06-28 22:11:27",
    "index": 34
  },
  {
    "name": "China Telecom",
    "latitude": 31.2160139,
    "longitude": 121.6326719,
    "source": "page_1",
    "province": "上海市",
    "city": "上海市",
    "coordinates": "31.2160139,121.6326719",
    "crawl_time": "2025-06-28 22:11:27",
    "index": 35
  }
]